{"places":[{"place_name":"Merlion","latitude":"1.286920","longitude":"103.854570","description":"On the Insert tab, the galleries include items that are designed to coordinate with the overall look of your document. You can use these galleries to insert tables, headers, footers, lists, cover pages, and other document building blocks.","img":"assets\/img\/merlion.jpg"},{"place_name":"Marina Bay Sands","latitude":"1.283099","longitude":"103.860295","description":"On the Insert tab, the galleries include items that are designed to coordinate with the overall look of your document. You can use these galleries to insert tables, headers, footers, lists, cover pages, and other document building blocks.","img":"assets\/img\/marinabaysands.jpg"},{"place_name":"Gardens By The Bay","latitude":"1.281790","longitude":"103.863954","description":"On the Insert tab, the galleries include items that are designed to coordinate with the overall look of your document. You can use these galleries to insert tables, headers, footers, lists, cover pages, and other document building blocks.","img":"assets\/img\/gardensbythebay.jpg"},{"place_name":"Chinatown","latitude":"1.284193","longitude":"103.843362","description":"On the Insert tab, the galleries include items that are designed to coordinate with the overall look of your document. You can use these galleries to insert tables, headers, footers, lists, cover pages, and other document building blocks.","img":"assets\/img\/chinatown.jpg"},{"place_name":"Asian Civilisations Museum","latitude":"1.287466","longitude":"103.851424","description":"On the Insert tab, the galleries include items that are designed to coordinate with the overall look of your document. You can use these galleries to insert tables, headers, footers, lists, cover pages, and other document building blocks.","img":"assets\/img\/asiancivilmuseum.jpg"},{"place_name":"Clarke Quay","latitude":"1.290555","longitude":"103.846188","description":"On the Insert tab, the galleries include items that are designed to coordinate with the overall look of your document. You can use these galleries to insert tables, headers, footers, lists, cover pages, and other document building blocks.","img":"assets\/img\/clarkequay.jpg"},{"place_name":"Fort Canning Park","latitude":"1.295526","longitude":"103.845331","description":"On the Insert tab, the galleries include items that are designed to coordinate with the overall look of your document. You can use these galleries to insert tables, headers, footers, lists, cover pages, and other document building blocks.","img":"assets\/img\/fortcanningpark.jpg"},{"place_name":"Singapore Flyer","latitude":"1.289332","longitude":"103.863152","description":"On the Insert tab, the galleries include items that are designed to coordinate with the overall look of your document. You can use these galleries to insert tables, headers, footers, lists, cover pages, and other document building blocks.","img":"assets\/img\/singaporeflyer.jpg"},{"place_name":"Orchard Road","latitude":"1.302279","longitude":"103.837399","description":"On the Insert tab, the galleries include items that are designed to coordinate with the overall look of your document. You can use these galleries to insert tables, headers, footers, lists, cover pages, and other document building blocks.","img":"assets\/img\/orchard-road.jpg"}]}